[
  {
    "id": 1,
    "name":"Pizza Di Genova"
  },
  {
    "id": 2,
    "name": "Allo Pizza 91"
  }
]

/*{
	"data": [{
		"id":2,
		"name":"Costa S.A.R.L.",
		"categories":[1],
		"longitude":-120.283,
		"latitude":7.63885
		},{
		"id":10,
		"name":"Dupuy S.A.R.L.",
		"categories":[1],
		"longitude":88.721,
		"latitude":-59.2591
		},{
		"id":1,"name":"Jacob SARL","categories":[1],"longitude":69.5549,"latitude":-29.5155},{"id":6,"name":"Launay","categories":[1],"longitude":-174.803,"latitude":56.6177},{"id":4,"name":"Legrand SARL","categories":[1],"longitude":-135.684,"latitude":80.4295},{"id":9,"name":"Pineau et Fils","categories":[1],"longitude":-69.8281,"latitude":59.7057},{"id":11,"name":"Pizza Di Genova","categories":[1],"longitude":48.7171,"latitude":2.23933},{"id":3,"name":"Poirier","categories":[1],"longitude":-58.0139,"latitude":48.0557},{"id":8,"name":"Renaud Reynaud S.A.S.","categories":[1],"longitude":-129.42,"latitude":-49.5713},{"id":7,"name":"Robert et Fils","categories":[1],"longitude":-70.4263,"latitude":-38.0293},{"id":5,"name":"Robert S.A.R.L.","categories":[1],"longitude":21.6862,"latitude":5.24989}]}
*/